[
  {
    "id": "p1",
    "name": "The Sardar Dhaba",
    "category": "Food",
    "desc": "Legendary dhaba vibes \u2014 butter chicken that hits different after a long lab sesh.",
    "lat": 28.3578,
    "lng": 75.6005,
    "img": "",
    "votes": 32,
    "bookmarked": false,
    "source": "seed"
  },
  {
    "id": "p2",
    "name": "Neelam Books & Stationery",
    "category": "Stationery",
    "desc": "OG spot for project printing, thick bond paper, and mad exam-specific notes.",
    "lat": 28.3589,
    "lng": 75.6002,
    "img": "",
    "votes": 21,
    "bookmarked": false,
    "source": "seed"
  },
  {
    "id": "p3",
    "name": "Payal Cafe",
    "category": "Cafe",
    "desc": "Chill cafe, good for group meetups and chai. Great momo on rainy days.",
    "lat": 28.3584,
    "lng": 75.602,
    "img": "",
    "votes": 44,
    "bookmarked": true,
    "source": "seed"
  },
  {
    "id": "p4",
    "name": "Campus Printing Hub",
    "category": "Services",
    "desc": "Fast printing, lamination & binding \u2014 usually crowded at midnight before submissions.",
    "lat": 28.3593,
    "lng": 75.6016,
    "img": "",
    "votes": 12,
    "bookmarked": false,
    "source": "seed"
  },
  {
    "id": "p5",
    "name": "Baker's Corner",
    "category": "Food",
    "desc": "Fresh bread & quirky cakes. Perfect for midnight cravings.",
    "lat": 28.3572,
    "lng": 75.6027,
    "img": "",
    "votes": 9,
    "bookmarked": false,
    "source": "seed"
  },
  {
    "id": "p6",
    "name": "BITS Medical Store",
    "category": "Services",
    "desc": "Medical & first-aid essentials. Helpful during chaotic project weeks.",
    "lat": 28.3579,
    "lng": 75.6009,
    "img": "",
    "votes": 6,
    "bookmarked": false,
    "source": "seed"
  },
  {
    "id": "p7",
    "name": "Neha's Samosa Stall",
    "category": "Food",
    "desc": "Cheap samosas, extra spicy chutney \u2014 campus fave for breakfast.",
    "lat": 28.3586,
    "lng": 75.5998,
    "img": "",
    "votes": 15,
    "bookmarked": false,
    "source": "seed"
  },
  {
    "id": "p8",
    "name": "Pilani Park",
    "category": "Outdoors",
    "desc": "Relax under trees, group picnic spot. Insta-friendly sunsets.",
    "lat": 28.3598,
    "lng": 75.6031,
    "img": "",
    "votes": 26,
    "bookmarked": true,
    "source": "seed"
  },
  {
    "id": "p9",
    "name": "SIM Printing (24x7)",
    "category": "Services",
    "desc": "24-hour print joint. Lifesaver during midnight panic.",
    "lat": 28.3569,
    "lng": 75.6011,
    "img": "",
    "votes": 18,
    "bookmarked": false,
    "source": "seed"
  },
  {
    "id": "p10",
    "name": "Gurdwara Lane",
    "category": "Spiritual",
    "desc": "Peaceful spot, langar on weekends sometimes.",
    "lat": 28.358,
    "lng": 75.6038,
    "img": "",
    "votes": 8,
    "bookmarked": false,
    "source": "seed"
  },
  {
    "id": "p11",
    "name": "The Chill Zone (Gaming)",
    "category": "Entertainment",
    "desc": "Console gaming, cheap snacks \u2014 perfect to unwind.",
    "lat": 28.3587,
    "lng": 75.6024,
    "img": "",
    "votes": 11,
    "bookmarked": false,
    "source": "seed"
  },
  {
    "id": "p12",
    "name": "Mom's Dosa",
    "category": "Food",
    "desc": "South-Indian breakfast stall that slaps. Dosa + filter coffee = peak energy.",
    "lat": 28.3576,
    "lng": 75.6018,
    "img": "",
    "votes": 29,
    "bookmarked": true,
    "source": "seed"
  }
]